[
  {
    "name": "Saud Furnished Suites",
    "latitude": 26.2680627,
    "longitude": 50.1882945,
    "address": "Najran St, Al-Thuqbah, Al Khobar 34625, Saudi Arabia",
    "phone": "057 313 1928",
    "website": null
  },
  {
    "name": "Hospitality Elegance Residential Units",
    "latitude": 26.2868007,
    "longitude": 50.1825425,
    "address": "75PM+P2F, Aseer St, Al-Thuqbah, Al Khobar 34718, Saudi Arabia",
    "phone": "053 812 0003",
    "website": null
  },
  {
    "name": "Dan Furnished Residential Units",
    "latitude": 26.2729347,
    "longitude": 50.1856868,
    "address": "\u0627\u0644\u062b\u0642\u0628\u0647\u060c 15th St, \u062a\u0642\u0627\u0637\u0639\u060c Al Khobar 34624, Saudi Arabia",
    "phone": "055 834 6890",
    "website": null
  },
  {
    "name": "Qasr Al Sehab Furnished Apartment",
    "latitude": 26.2688831,
    "longitude": 50.1891419,
    "address": "\u0627\u0644\u0634\u0627\u0631\u0639 \u0627\u0644\u0639\u0634\u0631\u064a\u0646\u060c Aseer St, Al-Thuqbah, Al Khobar 34624, Saudi Arabia",
    "phone": "013 893 9950",
    "website": null
  },
  {
    "name": "Aley residences for furnished apartments",
    "latitude": 26.2775744,
    "longitude": 50.20466330000001,
    "address": "8090 17th Street, Al Khobar Al Janubiyah, 4919, Al Khobar 34621, Saudi Arabia",
    "phone": "051 075 2788",
    "website": null
  },
  {
    "name": "\u0645\u0628\u064a\u062a \u0627\u0644\u062e\u0628\u0631 \u0644\u0644\u0634\u0642\u0642 \u0627\u0644\u0645\u062e\u062f\u0648\u0645\u0629",
    "latitude": 26.2998652,
    "longitude": 50.17348870000001,
    "address": "Bashar Ibn Burd St, Olaya, Al Khobar 34448, Saudi Arabia",
    "phone": "053 663 1110",
    "website": "http://www.mabeetkhobar.com/"
  },
  {
    "name": "Royal Alkhobar",
    "latitude": 26.2667069,
    "longitude": 50.18816229999999,
    "address": "6889 King Khalid Rd, Al-Thuqbah, Al Khobar 34625, Saudi Arabia",
    "phone": "013 896 7252",
    "website": null
  },
  {
    "name": "\u0633\u0648\u0627\u062a \u0644\u0644\u0634\u0642\u0642 \u0627\u0644\u0641\u0646\u062f\u0642\u064a\u0629 2",
    "latitude": 26.2886393,
    "longitude": 50.1860803,
    "address": "_ \u0627\u0644\u0639\u0644\u064a\u0627 _\u060c Muammar Altamimi St, \u062d\u064a \u0627\u0644\u062c\u0648\u0647\u0631\u0629\u060c Al Khobar 34446, Saudi Arabia",
    "phone": "013 831 4455",
    "website": "https://wa.me/message/KTX4OGENA6CZK1"
  },
  {
    "name": "YASMINA HOTEL",
    "latitude": 26.2849748,
    "longitude": 50.1829719,
    "address": "\u062e\u0644\u0641\u060c Venecia Mall, Custodian of The Two Holy Mosques Rd, Al-Thuqbah, Al Khobar 34623, Saudi Arabia",
    "phone": "056 091 7741",
    "website": null
  },
  {
    "name": "\u0623\u0631\u0627\u0634\u0627 \u0644\u0644\u0648\u062d\u062f\u0627\u062a \u0627\u0644\u0633\u0643\u0646\u064a\u0629",
    "latitude": 26.2847116,
    "longitude": 50.1828103,
    "address": "4th St, Al-Thuqbah, Al Khobar 34623, Saudi Arabia",
    "phone": "059 694 9943",
    "website": null
  },
  {
    "name": "Massa AL Khobar Furnished Apartments",
    "latitude": 26.2923946,
    "longitude": 50.1835403,
    "address": "Zaid Bin Al Khatab St, Olaya, Al Khobar 34446, Saudi Arabia",
    "phone": "013 897 6505",
    "website": null
  },
  {
    "name": "\u0634\u0642\u0642 \u0627\u0644\u0633\u0639\u0627\u062f\u0629",
    "latitude": 26.2696127,
    "longitude": 50.1869454,
    "address": "King Khalid Rd, Al-Thuqbah, Al Khobar 34624, Saudi Arabia",
    "phone": "056 811 3048",
    "website": null
  },
  {
    "name": "\u0628\u064a\u062a\u0643 \u0627\u0644\u062b\u0627\u0646\u064a \u0644\u0644\u0634\u0642\u0642 \u0627\u0644\u0645\u0641\u0631\u0648\u0634\u0629",
    "latitude": 26.2780385,
    "longitude": 50.1836795,
    "address": "75HM+6F7, 10th St, Al-Thuqbah, Al Khobar 34623, Saudi Arabia",
    "phone": null,
    "website": null
  },
  {
    "name": "\u0639\u0648\u0627\u0644\u064a \u0644\u0644\u0634\u0642\u0642 \u0627\u0644\u0645\u062e\u062f\u0648\u0645\u0647",
    "latitude": 26.2961106,
    "longitude": 50.1752499,
    "address": "\u062d\u064a\u060c 3008 6\u0628\u060c EKJB3008\u060c Al Khobar 34448, Saudi Arabia",
    "phone": "053 574 1966",
    "website": null
  },
  {
    "name": "The first copy Furnished Residential Units",
    "latitude": 26.2706997,
    "longitude": 50.1951039,
    "address": "75CW+72H, Medina St, Al-Thuqbah, Al Khobar 34624, Saudi Arabia",
    "phone": "050 784 9409",
    "website": "http://1firstcopy.simplesite.com/433800626"
  },
  {
    "name": "\u0634\u0642\u0642 \u0645\u0641\u0631\u0648\u0634\u0629 \u062d\u062f\u064a\u062b\u0629",
    "latitude": 26.2796584,
    "longitude": 50.182639,
    "address": "King Khalid Rd, Al-Thuqbah, Al Khobar 34623, Saudi Arabia",
    "phone": "059 204 2340",
    "website": null
  },
  {
    "name": "Hotel makani furnished apartments",
    "latitude": 26.2914218,
    "longitude": 50.1864176,
    "address": "75RP+HH7, Zaid Bin Al Khatab St, Olaya, Al Khobar 34446, Saudi Arabia",
    "phone": "013 893 6655",
    "website": null
  },
  {
    "name": "Sarah Furnished Apartments",
    "latitude": 26.2872469,
    "longitude": 50.1957304,
    "address": "\u062d\u064a\u060c Al Yarmuk St, Al Aqrabiyah, Al Khobar 34446, Saudi Arabia",
    "phone": "050 520 2290",
    "website": null
  },
  {
    "name": "The Address serviced apartments",
    "latitude": 26.2732753,
    "longitude": 50.2164018,
    "address": "\u062d\u064a, 8462 Alkhobar SA\u060c 2806 Prince Turkey Street, Al Khobar Al Janubiyah, Al Khobar 34611, Saudi Arabia",
    "phone": "056 274 8422",
    "website": "http://www.dyafa.com/"
  },
  {
    "name": "Maaz",
    "latitude": 26.2684205,
    "longitude": 50.18859500000001,
    "address": "\u0634\u0627\u0631\u0639 \u0639\u0633\u064a\u0631\u060c 759Q+9C9\u060c \u0634\u0627\u0631\u0639 \u0627\u0644\u0639\u0634\u0631\u064a\u0646\u060c \u062a\u0642\u0627\u0637\u0639\u060c Al Khobar 34624, Saudi Arabia",
    "phone": "056 063 1783",
    "website": null
  },
  {
    "name": "\u0633\u0648\u0627\u062a \u0627\u0644\u0639\u0644\u064a\u0627 \u0644\u0644\u0634\u0642\u0642 \u0627\u0644\u0641\u0646\u062f\u0642\u064a\u0629",
    "latitude": 26.2932357,
    "longitude": 50.1793498,
    "address": "\u0627\u0644\u0639\u0644\u064a\u0627\u060c Olaya, \u0645\u0642\u0627\u0628\u0644 \u0627\u0644\u0631\u0627\u0634\u062f \u0645\u0648\u0644 \u0628\u0648\u0627\u0628\u0629 5\u060c Al Khobar 34448, Saudi Arabia",
    "phone": "013 840 7000",
    "website": "https://business.google.com/edit/l/06758568839533753458"
  },
  {
    "name": "OYO 152 Danat Hotel Apartment",
    "latitude": 26.29155570000001,
    "longitude": 50.18598209999999,
    "address": "2580 Zayd Ibn Al Khattab\u060c Olaya, Al Khobar 34446, Saudi Arabia",
    "phone": "5100400",
    "website": "https://www.oyorooms.com/sa/hotels-in-Khobar/?utm_source=Google_gmb_so_SA&utm_medium=Organic&utm_campaign=SA_KBR007&locale=en"
  },
  {
    "name": "Romantic Apartments",
    "latitude": 26.261484,
    "longitude": 50.1904275,
    "address": "6313\u060c 3486 \u0637\u0631\u064a\u0642 \u0627\u0644\u0645\u0644\u0643 \u062e\u0627\u0644\u062f\u060c \u0627\u0644\u062b\u0642\u0628\u0629\u060c\u060c 3486, Al-Thuqbah, Al Khobar 34625, Saudi Arabia",
    "phone": "013 889 5626",
    "website": null
  },
  {
    "name": "Naseem Al Khobar Furnished Apartments",
    "latitude": 26.2735931,
    "longitude": 50.1852942,
    "address": "7657 King Khalid Rd, Al-Thuqbah, Al Khobar 34623, Saudi Arabia",
    "phone": "013 865 5133",
    "website": null
  },
  {
    "name": "Asalah Al-Shorooq Aparthotel",
    "latitude": 26.28579860000001,
    "longitude": 50.1821876,
    "address": "\u0634\u0627\u0631\u0639 \u0639\u0633\u064a\u0631\u060c Al-Thuqbah, Al Khobar 34623, Saudi Arabia",
    "phone": "050 776 2857",
    "website": "https://asalahalshorouk.baab.com/"
  },
  {
    "name": "\u0627\u0644\u0648\u0633\u0627\u0645 \u0627\u0644\u0635\u0627\u0639\u062f \u0644\u0644\u0634\u0642\u0642 \u0627\u0644\u0645\u0641\u0631\u0648\u0634\u0629",
    "latitude": 26.2722974,
    "longitude": 50.1949208,
    "address": "75CV+WX7, \u0634\u0627\u0631\u0639 \u0645\u0643\u0629\u060c, Al-Thuqbah, Al Khobar 34624, Saudi Arabia",
    "phone": "050 536 9328",
    "website": null
  },
  {
    "name": "\u062f\u0627\u0646\u0629 \u0627\u0644\u0634\u0631\u0642 \u0644\u0644\u0634\u0642\u0642 \u0627\u0644\u0645\u062e\u062f\u0648\u0645\u0629",
    "latitude": 26.2970923,
    "longitude": 50.1705403,
    "address": "6973, \u0627\u0644\u0639\u0644\u064a\u0627\u060c \u0627\u0644\u062e\u0628\u0631 34448, Saudi Arabia",
    "phone": "055 195 0099",
    "website": "https://myho.tel/danatalsharq.com/"
  },
  {
    "name": "\u0627\u0631\u0627\u0634\u0627 \u0627\u0644\u064a\u0627\u0633\u0645\u064a\u0646 \u0644\u0644\u0648\u062d\u062f\u0627\u062a \u0627\u0644\u0633\u0643\u0646\u064a\u0647 \u0627\u0644\u0645\u0641\u0631\u0648\u0634\u0647",
    "latitude": 26.2851198,
    "longitude": 50.1835045,
    "address": "_\u062e\u0644\u0641 \u0641\u0644\u0627\u0645\u0646\u062c\u0648 \u0628\u0627\u0631\u0643\u060c \u0634\u0627\u0631\u0639 \u0639\u0633\u064a\u0631\u060c Al-Thuqbah, Al Khobar 34623, Saudi Arabia",
    "phone": "056 137 1778",
    "website": null
  },
  {
    "name": "\u0634\u0642\u0642 \u0648\u0631\u062f\u0629 \u0627\u0644\u062e\u0628\u0631 \u0627\u0644\u0641\u0646\u062f\u0642\u064a\u0647",
    "latitude": 26.2870402,
    "longitude": 50.1911089,
    "address": "3074 1\u060c Al Aqrabiyah, Al Khobar 34446, Saudi Arabia",
    "phone": "055 890 0747",
    "website": null
  },
  {
    "name": "Qimat Najd Serviced Apartments",
    "latitude": 26.2973432,
    "longitude": 50.17307109999999,
    "address": "\u0634\u0627\u0631\u0639 \u0623\u062d\u0645\u062f \u0627\u0644\u0639\u0633\u0642\u0644\u0627\u0646\u064a\u060c, Olaya, Al Khobar 34448, Saudi Arabia",
    "phone": "055 102 3300",
    "website": null
  },
  {
    "name": "ALSHAMKHA FURNISHED RESIDENTIAL UNITS",
    "latitude": 26.2949049,
    "longitude": 50.1769763,
    "address": "Alfadl Ibn Ismail St, Olaya, Al Khobar 34448, Saudi Arabia",
    "phone": "013 884 2333",
    "website": null
  },
  {
    "name": "Via Furnished Hotel Apartments",
    "latitude": 26.28994339999999,
    "longitude": 50.18876710000001,
    "address": "Al Yarmuk St, Al Aqrabiyah, building number 2961\u060c Al Khobar 34446, Saudi Arabia",
    "phone": "013 881 9955",
    "website": null
  },
  {
    "name": "4 \u0628\u0644\u0648 \u0645\u0643\u0633 \u0634\u0642\u0642 \u0645\u0641\u0631\u0648\u0634\u0629 \u0648\u0627\u0644\u0648\u062d\u062f\u0627\u062a \u0627\u0644\u0633\u0643\u0646\u064a\u0629",
    "latitude": 26.2661538,
    "longitude": 50.1963289,
    "address": "758W+FG8\u060c \u0627\u0644\u0634\u0627\u0631\u0639 \u0627\u0644\u062e\u0627\u0645\u0633 \u0648\u0627\u0644\u0639\u0634\u0631\u064a\u0646\u060c Al-Thuqbah, Al Khobar 34625, Saudi Arabia",
    "phone": "013 893 9256",
    "website": null
  },
  {
    "name": "Samaya Hotel",
    "latitude": 26.2929377,
    "longitude": 50.1834198,
    "address": "Zaid Bin Al Khatab St, Olaya, Al Khobar 34446, Saudi Arabia",
    "phone": "013 898 6602",
    "website": null
  },
  {
    "name": "\u0633\u0648\u0627\u062a \u0644\u0644\u0634\u0642\u0642 \u0627\u0644\u0641\u0646\u062f\u0642\u064a\u0629 4",
    "latitude": 26.2905197,
    "longitude": 50.182367,
    "address": "\u0627\u0644\u0639\u0644\u064a\u0627 _ \u0645\u0642\u0627\u0628\u0644 \u0628\u0648\u0627\u0628\u0629 7 \u0627\u0644\u0631\u0627\u0634\u062f \u0645\u0648\u0644\u060c Olaya, \u0641\u0631\u0627\u0633 \u0628\u0646 \u0627\u0644\u0646\u0636\u0631\u060c \u0627\u0644\u062e\u0628\u0631 34448, Saudi Arabia",
    "phone": "013 848 8000",
    "website": null
  },
  {
    "name": "Garden Hotel Apartments Al Khobar",
    "latitude": 26.2874932,
    "longitude": 50.19463209999999,
    "address": "75PV+XVR, Al Yarmuk St, Al Aqrabiyah, Al Khobar 34446, Saudi Arabia",
    "phone": "013 889 2234",
    "website": null
  },
  {
    "name": "Badova residential units",
    "latitude": 26.29028109999999,
    "longitude": 50.184431,
    "address": "JAwhara district , Next to Rashed Mall- Gate no.7 , building number 498\u060c Olaya, Al Khobar 34446, Saudi Arabia",
    "phone": "013 899 0404",
    "website": null
  },
  {
    "name": "\u0627\u0644\u0631\u0627\u064a\u0647 \u0644\u0644\u0648\u062d\u062f\u0627\u062a \u0627\u0644\u0633\u0643\u0646\u064a\u0647 \u0634\u0642\u0642 \u0627\u064a\u062c\u0627\u0631 \u064a\u0648\u0645\u064a",
    "latitude": 26.2660508,
    "longitude": 50.1885734,
    "address": "King Khalid Rd, Al-Thuqbah, Al Khobar 34625, Saudi Arabia",
    "phone": "059 112 8315",
    "website": null
  },
  {
    "name": "Masaken Al Sharq Apartments",
    "latitude": 26.2700722,
    "longitude": 50.1933287,
    "address": "20th St, Al-Thuqbah, Al Khobar 34624, Saudi Arabia",
    "phone": "013 899 6914",
    "website": null
  },
  {
    "name": "OYO 214 Quiet Inn Hotel Apartments",
    "latitude": 26.2898374,
    "longitude": 50.1889228,
    "address": "Al Aqrabiyah, Al Khobar 34446, Saudi Arabia",
    "phone": "5100400",
    "website": "https://www.oyorooms.com/sa/hotels-in-Khobar/?utm_source=Google_gmb_so_SA&utm_medium=Organic&utm_campaign=SA_KBR018&locale=en"
  },
  {
    "name": "\u0641\u0646\u062f\u0642 \u0627\u0644\u0644\u0648\u062a\u0633 \u0644\u0634\u0642\u0642 \u0641\u0646\u062f\u0642\u064a\u0629",
    "latitude": 26.294308,
    "longitude": 50.17641659999999,
    "address": "3117 5\u060c 6655\u060c 6655, Olaya, Al Khobar 34448, Saudi Arabia",
    "phone": "050 688 8261",
    "website": null
  },
  {
    "name": "Concorde Hotel Suites",
    "latitude": 26.2710247,
    "longitude": 50.1956775,
    "address": "\u0634\u0627\u0631\u0639 \u0645\u0643\u0629 \u0627\u0644\u0645\u0643\u0631\u0645\u0629 Makkah Al Mukarramah St, 4006, Al-Thuqbah, Al Khobar 34624, Saudi Arabia",
    "phone": "013 897 4242",
    "website": null
  },
  {
    "name": "Majestic Furnished Apartments",
    "latitude": 26.2965387,
    "longitude": 50.17063749999999,
    "address": "75WC+J76, Olaya, Al Khobar 34448, Saudi Arabia",
    "phone": "013 832 3356",
    "website": null
  },
  {
    "name": "\u0627\u0644\u062c\u0648\u0631\u064a \u0644\u0644\u0648\u062d\u062f\u0627\u062a \u0627\u0644\u0633\u0643\u0646\u064a\u0629 \u0627\u0644\u0645\u0641\u0631\u0648\u0634\u0629",
    "latitude": 26.2896627,
    "longitude": 50.18744129999999,
    "address": "Makkah Al Mukarramah St, Olaya, Al Khobar 34446, Saudi Arabia",
    "phone": "013 895 3330",
    "website": null
  },
  {
    "name": "Grandeur East",
    "latitude": 26.2898415,
    "longitude": 50.18747399999999,
    "address": "Makkah Al Mukarramah\u060c\u060c Olaya, Al Khobar 34446, Saudi Arabia",
    "phone": "013 867 3333",
    "website": "http://grandeureast.com/"
  },
  {
    "name": "Doha Almmlka Hotel Suites (Families Only)",
    "latitude": 26.2912128,
    "longitude": 50.1861886,
    "address": "Olaya, Al Khobar 34446, Saudi Arabia",
    "phone": "013 830 9307",
    "website": null
  },
  {
    "name": "\u0627\u0644\u0627\u0628\u0631\u0627\u062c \u0644\u0644\u0634\u0642\u0642 \u0627\u0644\u0645\u0641\u0631\u0648\u0634\u0629",
    "latitude": 26.2693744,
    "longitude": 50.1903513,
    "address": "20 \u0634\u0627\u0631\u0639 \u0627\u0644\u0637\u0627\u0626\u0641\u060c \u0627\u0644\u062b\u0642\u0628\u0629\u060c\u060c Al-Thuqbah, Al Khobar 34624, Saudi Arabia",
    "phone": "055 494 5585",
    "website": null
  },
  {
    "name": "Mayasa Furnished Apartment",
    "latitude": 26.2955249,
    "longitude": 50.2198995,
    "address": "7818 \u0627\u0644\u0627\u0645\u064a\u0631 \u0639\u0628\u062f \u0627\u0644\u0627\u0644\u0647\u060c \u0627\u0644\u062e\u0628\u0631 \u0627\u0644\u0634\u0645\u0627\u0644\u064a\u0629\u060c \u0627\u0644\u062e\u0628\u0631 34425\u060c 7818 \u0627\u0644\u0627\u0645\u064a\u0631 \u0639\u0628\u062f \u0627\u0644\u0627\u0644\u0647\u060c Al Khobar Al Shamalia, 3788\u060c Al Khobar 34425, Saudi Arabia",
    "phone": "013 884 4450",
    "website": null
  },
  {
    "name": "Traveller Inn",
    "latitude": 26.2914363,
    "longitude": 50.1824746,
    "address": "Firas Ibn Al Nudur St, Olaya, Al Khobar 34446, Saudi Arabia",
    "phone": "9200 06318",
    "website": "https://www.travellerinn.net/"
  },
  {
    "name": "\u0634\u0642\u0642 \u0627\u0644\u0645\u062d\u0645\u062f\u064a\u0629",
    "latitude": 26.2630709,
    "longitude": 50.1897539,
    "address": "EEDA6489\u060c 6489\u060c 3419 \u0637\u0631\u064a\u0642 \u0627\u0644\u0645\u0644\u0643 \u062e\u0627\u0644\u062f \u0641\u0631\u0639\u064a\u060c Al-Thuqbah, Al Khobar 34625, Saudi Arabia",
    "phone": null,
    "website": null
  },
  {
    "name": "Rest Time 2 Furnished Apartments",
    "latitude": 26.2925625,
    "longitude": 50.2164502,
    "address": "\u062d\u0649 \u0627\u0644\u062e\u0628\u0631 \u0627\u0644\u0634\u0645\u0627\u0644\u0649 \u0640 \u0634\u0627\u0631\u0639 16 \u0640 \u0627\u0644\u0645\u0644\u0643 \u0641\u064a\u0635\u0644\u060c Al Khobar Al Shamalia, \u0645\u0628\u0646\u0649 \u0631\u0642\u0645 / 7506\u060c Al Khobar 34427, Saudi Arabia",
    "phone": "053 834 7521",
    "website": null
  },
  {
    "name": "ETAB Hotels & Suites",
    "latitude": 26.284575,
    "longitude": 50.1823017,
    "address": "EEDA2672\u060c 8869 \u0627\u0644\u0631\u0627\u0628\u0639 \u0639\u0633\u064a\u0631 \u0645\u0639 \u0627\u0644\u0631\u0627\u0628\u0639\u060c Al-Thuqbah, 2672\u060c Al Khobar 34623, Saudi Arabia",
    "phone": "013 864 0367",
    "website": null
  },
  {
    "name": "\u0634\u0642\u0642 \u0627\u0645\u062c\u0627\u062f \u0627\u0644\u0645\u0641\u0631\u0648\u0634\u0629",
    "latitude": 26.2699078,
    "longitude": 50.193017,
    "address": "Diba St, Al-Thuqbah, Al Khobar 34624, Saudi Arabia",
    "phone": null,
    "website": null
  },
  {
    "name": "\u062c\u0648\u062f \u0644\u0644\u0648\u062d\u062f\u0627\u062a \u0627\u0644\u0633\u0643\u0646\u064a\u0629",
    "latitude": 26.2691608,
    "longitude": 50.1872155,
    "address": "King Khalid Branch Rd, Al-Thuqbah, Al Khobar 34217, Saudi Arabia",
    "phone": "056 336 1205",
    "website": null
  },
  {
    "name": "\u062c\u0648\u062f\u064a \u0644\u0644\u063a\u0631\u0641 \u0627\u0644\u0641\u0646\u062f\u0642\u064a\u0629",
    "latitude": 26.2734194,
    "longitude": 50.1854758,
    "address": "15th St, Al-Thuqbah, Al Khobar 34623, Saudi Arabia",
    "phone": "054 902 4777",
    "website": null
  },
  {
    "name": "\u0631\u064a\u0645\u0627\u0633 \u0644\u0644\u0634\u0642\u0642 \u0627\u0644\u0641\u0646\u062f\u0642\u064a\u0629",
    "latitude": 26.2899737,
    "longitude": 50.1843925,
    "address": "2403 4(B) Street, Olaya, 6844, Al Khobar 34446, Saudi Arabia",
    "phone": "013 865 2652",
    "website": null
  },
  {
    "name": "Marriott Executive Apartments Al Khobar",
    "latitude": 26.2978971,
    "longitude": 50.2005212,
    "address": "Building 7791, Prince Hammoud Bin Abdul Aziz Street., Al Aqrabiyah, District, \u0627\u0644\u062e\u0628\u0631 31952, Saudi Arabia",
    "phone": "013 848 1400",
    "website": "https://www.marriott.com/en-us/hotels/dmmka-marriott-executive-apartments-al-khobar/overview/?scid=f2ae0541-1279-4f24-b197-a979c79310b0"
  },
  {
    "name": "Ajwaa Furnished Apartments",
    "latitude": 26.29804429999999,
    "longitude": 50.17018179999999,
    "address": "2498 5 Street, Olaya, 7089, Al Khobar 34448, Saudi Arabia",
    "phone": "054 484 6525",
    "website": null
  },
  {
    "name": "\u063a\u064a\u062f\u0627 \u0644\u0644\u0634\u0642\u0642 \u0627\u0644\u0645\u0641\u0631\u0648\u0634\u0647",
    "latitude": 26.2640463,
    "longitude": 50.1893797,
    "address": "613\u060c\u060c Al-Thuqbah, Al Khobar 34625, Saudi Arabia",
    "phone": "013 889 0357",
    "website": null
  },
  {
    "name": "\u0645\u0633\u0627\u064a\u0627 \u0644\u0644\u0634\u0642\u0642 \u0627\u0644\u0645\u0641\u0631\u0648\u0634\u0629\u0661",
    "latitude": 26.2915958,
    "longitude": 50.1839352,
    "address": "2371 Abu Aldur Alroomi, Olaya, 7016, Al Khobar 34446, Saudi Arabia",
    "phone": "055 471 2338",
    "website": null
  }
]